Timestamp,Latitude (Deg),Longitude (Deg),Heading (Deg),Inertial Altitude (ft),Pitch (Deg),Roll (Deg),East Velocity (m/s),North Velocity (m/s),Ground Speed (knots)
19:26:13.68,40.6611797422167,22.5204189040969,42.637939453125,571.6794,4.46044921875,3.40576171875,28.2421875,40.03125,95.1699969025253
19:26:13.85,40.661235984787,22.5204710395346,42.73681640625,570.8592,4.5538330078125,3.1640625,28.234375,39.9609375,95.049662329151
19:26:14.00,40.6612977594134,22.5205284555713,42.802734375,570.8592,4.5648193359375,2.8948974609375,28.234375,39.828125,94.839066436966
19:26:14.16,40.6613537505266,22.5205805910091,42.8631591796875,570.8592,4.5648193359375,2.6861572265625,28.2421875,39.7265625,94.6869735880459
19:26:14.32,40.6614095740017,22.5206328102658,42.9345703125,570.039,4.59228515625,2.4993896484375,28.2421875,39.6640625,94.588044795133
19:26:14.48,40.6614653136578,22.5206849457036,43.0169677734375,570.039,4.603271484375,2.318115234375,28.2265625,39.5625,94.4097651631421
19:26:14.64,40.661524070799,22.5207423617403,43.099365234375,569.2188,4.713134765625,2.17529296875,28.1875,39.46875,94.2174494527232
19:26:14.80,40.661579475179,22.520794497178,43.1488037109375,569.2188,4.7625732421875,2.08740234375,28.1875,39.375,94.0693049474271
19:26:14.96,40.661634879559,22.5208465487967,43.1817626953125,569.2188,4.8284912109375,2.04345703125,28.1953125,39.296875,93.9547890011881
19:26:15.12,40.6616901163009,22.5208986004154,43.2147216796875,568.3986,4.9713134765625,1.9720458984375,28.1796875,39.2265625,93.8261319507361
19:26:15.28,40.6617507174608,22.5209558488141,43.2861328125,568.3986,4.998779296875,1.9061279296875,28.1328125,39.1328125,93.6251009363642
19:26:15.44,40.6618057027456,22.5210078166137,43.35205078125,568.3986,5.009765625,1.834716796875,28.125,39.03125,93.4561036814981
19:26:15.60,40.6618593469259,22.5210605387847,43.4344482421875,568.3986,4.9658203125,1.7578125,28.1015625,38.9609375,93.3186798994027
19:26:15.76,40.6619140807536,22.5211124227653,43.516845703125,568.3986,5.009765625,1.69189453125,28.078125,38.890625,93.1812759091458
19:26:15.92,40.6619742628184,22.5211694197069,43.582763671875,567.5784,4.94384765625,1.658935546875,28.03125,38.796875,92.9803221025093
19:26:16.08,40.662028745189,22.5212212198685,43.626708984375,567.5784,4.89990234375,1.6259765625,28,38.7109375,92.8094645866338
19:26:16.24,40.6620832275597,22.5212730200301,43.670654296875,567.5784,4.8724365234375,1.5875244140625,28,38.6328125,92.6865375336425
19:26:16.40,40.6621374584732,22.5213246525536,43.7255859375,567.5784,4.9658203125,1.6314697265625,27.96875,38.5625,92.5403215700942
19:26:16.56,40.662195042148,22.5213823200475,43.7969970703125,566.7582,5.0152587890625,1.834716796875,27.921875,38.4765625,92.3517222431189
19:26:16.72,40.6622491054234,22.521433868752,43.868408203125,566.7582,5.0482177734375,2.1478271484375,27.8984375,38.3671875,92.153059774649
19:26:16.89,40.6623030010608,22.5214854174565,43.9508056640625,566.7582,5.108642578125,2.4664306640625,27.8984375,38.28125,92.0180916582155
19:26:17.04,40.6623568128792,22.521536882342,44.066162109375,566.7582,5.262451171875,2.779541015625,27.875,38.171875,91.8196078869813
19:26:17.21,40.6624158214775,22.5215935440074,44.2144775390625,566.7582,5.361328125,3.131103515625,27.8359375,38.0625,91.6032885351143
19:26:17.36,40.6624692142007,22.5216449250738,44.4012451171875,566.7582,5.44921875,3.5595703125,27.828125,37.9375,91.3984205710144
19:26:17.53,40.6625220201907,22.5216970605116,44.62646484375,565.938,5.5535888671875,4.1143798828125,27.84375,37.8046875,91.2085105721325
19:26:17.68,40.6625751614568,22.5217485253971,44.901123046875,565.938,5.767822265625,4.81201171875,27.875,37.6640625,91.0247974903683
19:26:17.85,40.6626332480458,22.5218051032435,45.186767578125,565.938,5.86669921875,5.4547119140625,27.8671875,37.4921875,90.7475825527786
19:26:18.00,40.6626858863977,22.521856651948,45.4559326171875,565.938,5.965576171875,5.9326171875,27.9140625,37.3046875,90.5100388628044
19:26:18.16,40.6627382732925,22.5219082006525,45.7196044921875,565.938,6.0479736328125,6.064453125,27.9375,37.1328125,90.2702970873284
19:26:18.32,40.6627904087303,22.521959833176,45.9393310546875,565.938,6.1907958984375,5.6964111328125,27.96875,36.953125,90.028233492665
19:26:18.48,40.6628474894909,22.5220167462986,46.087646484375,565.938,6.240234375,5.1580810546875,27.96875,36.78125,89.7622327650218
19:26:18.64,40.6628998763857,22.5220690493743,46.1865234375,565.1178,6.2896728515625,4.6856689453125,27.984375,36.625,89.539233874949
19:26:18.80,40.6629513412712,22.5221207657169,46.2799072265625,565.1178,6.2896728515625,4.3560791015625,27.9921875,36.4765625,89.3195179778449
19:26:18.96,40.6630025546996,22.5221724820595,46.3348388671875,565.1178,6.328125,4.0814208984375,28,36.3359375,89.1122170040152
19:26:19.12,40.6630587134508,22.522229311363,46.3568115234375,565.1178,6.3226318359375,3.812255859375,27.9921875,36.1796875,88.8626938549926
19:26:19.28,40.663109507784,22.5222810277056,46.3568115234375,565.1178,6.3116455078125,3.4661865234375,27.96875,36.0234375,88.5948926466912
19:26:19.44,40.6631601344792,22.5223326602291,46.34033203125,565.1178,6.328125,3.043212890625,27.9453125,35.90625,88.3872172561226
19:26:19.60,40.6632109288124,22.5223847956668,46.3018798828125,565.1178,6.30615234375,2.5323486328125,27.90625,35.8046875,88.1849348983001
19:26:19.76,40.6632662493734,22.5224415411513,46.263427734375,565.1178,6.3006591796875,2.1533203125,27.859375,35.6953125,87.9613936964308
19:26:19.92,40.6633163731543,22.5224929222178,46.2359619140625,565.1178,6.2677001953125,1.8896484375,27.8046875,35.5859375,87.7285471545685
19:26:20.08,40.6633664131163,22.5225443032842,46.2249755859375,565.1178,6.2567138671875,1.6644287109375,27.7578125,35.484375,87.517030353473
19:26:20.24,40.6634162854401,22.5225956005316,46.197509765625,565.1178,6.2237548828125,1.4117431640625,27.7109375,35.3984375,87.3294406067273
19:26:20.40,40.6634710192678,22.5226518431019,46.1480712890625,565.1178,6.1798095703125,1.20849609375,27.65625,35.3203125,87.1444522471812
19:26:20.56,40.6635207239537,22.5227047329109,46.0986328125,565.1178,6.163330078125,1.0601806640625,27.609375,35.234375,86.9568772150249
19:26:20.72,40.6635702610014,22.5227556110632,46.0821533203125,565.1178,6.1248779296875,0.9942626953125,27.53125,35.15625,86.7438146730057
19:26:20.89,40.6636197142301,22.5228064892154,46.0986328125,565.1178,6.009521484375,0.999755859375,27.46875,35.109375,86.5972741224223
19:26:21.04,40.6636739451436,22.5228622288715,46.109619140625,565.1178,5.9271240234375,1.021728515625,27.4140625,35.03125,86.4122829888274
19:26:21.21,40.6637231469153,22.5229128555667,46.131591796875,565.1178,5.8392333984375,1.0162353515625,27.375,34.953125,86.2460051923227
19:26:21.36,40.6637723486869,22.5229633984428,46.1480712890625,565.1178,5.7183837890625,0.911865234375,27.3125,34.8984375,86.0875107042239
19:26:21.53,40.6638189520685,22.5230149471473,46.1700439453125,564.2976,5.548095703125,0.714111328125,27.2578125,34.8359375,85.9264240145775
19:26:21.68,40.6638679862021,22.5230653223854,46.1590576171875,564.2976,5.4437255859375,0.4888916015625,27.203125,34.7734375,85.7653382361149
19:26:21.85,40.6639217142014,22.5231205591273,46.0986328125,564.2976,5.372314453125,0.3240966796875,27.15625,34.7109375,85.6136040941355
19:26:22.00,40.6639704968779,22.5231706829082,46.0107421875,564.2976,5.350341796875,0.1812744140625,27.0859375,34.6640625,85.4577370324194
19:26:22.16,40.6640192795543,22.5232206390512,45.8843994140625,564.2976,5.3558349609375,0.0054931640625,27.015625,34.6171875,85.3019010818662
19:26:22.32,40.6640678945927,22.523270511375,45.7086181640625,563.4774,5.33935546875,-0.186767578125,26.9609375,34.5625,85.1527926059652
19:26:22.48,40.664121454954,22.5233252452027,45.5548095703125,563.4774,5.394287109375,-0.3570556640625,26.875,34.53125,85.0022994221666
19:26:22.64,40.6641687288879,22.5233755366218,45.41748046875,562.6572,5.4656982421875,-0.5218505859375,26.796875,34.5078125,84.8732062735479
19:26:22.80,40.6642172601072,22.5234249898505,45.2911376953125,562.6572,5.548095703125,-0.6207275390625,26.703125,34.46875,84.7016285181962
19:26:22.96,40.6642657075076,22.5234742754411,45.19775390625,561.837,5.6744384765625,-0.63720703125,26.6328125,34.4453125,84.5820232444891
19:26:23.12,40.6643190164118,22.5235283387166,45.1318359375,561.837,5.7843017578125,-0.582275390625,26.5546875,34.40625,84.4291923273029
19:26:23.28,40.6643673799931,22.5235772890311,45.0933837890625,561.837,5.8831787109375,-0.4998779296875,26.46875,34.375,84.2791889097075
19:26:23.44,40.6644156597553,22.5236261555266,45.032958984375,561.0168,5.9710693359375,-0.41748046875,26.3828125,34.3359375,84.117258309574
19:26:23.60,40.6644639395176,22.5236753572982,44.9285888671875,560.1966,5.99853515625,-0.3460693359375,26.3046875,34.2734375,83.9285284896675
19:26:23.76,40.6645169969647,22.5237287500214,44.835205078125,560.1966,6.0589599609375,-0.274658203125,26.21875,34.234375,83.7667339156037
19:26:23.92,40.6645651090889,22.5237771136027,44.747314453125,560.1966,6.08642578125,-0.1922607421875,26.1171875,34.203125,83.5986628912729
19:26:24.08,40.6646132212131,22.523825309546,44.67041015625,559.3764,6.1358642578125,-0.1043701171875,26.03125,34.15625,83.425010504036
19:26:24.24,40.6646612495183,22.5238733378512,44.6099853515625,559.3764,6.207275390625,0.02197265625,25.96875,34.109375,83.279002339479
19:26:24.40,40.6647139716892,22.5239260600221,44.571533203125,559.3764,6.229248046875,0.142822265625,25.8828125,34.0546875,83.0933775047718
19:26:24.56,40.6647626705466,22.5239737530512,44.549560546875,558.5562,6.2457275390625,0.263671875,25.8125,34.0078125,82.9382478174919
19:26:24.72,40.6648104473947,22.5240213622612,44.5330810546875,558.5562,6.2457275390625,0.3790283203125,25.734375,33.9609375,82.7739861440024
19:26:24.89,40.6648582242428,22.5240688876522,44.5111083984375,557.736,6.207275390625,0.538330078125,25.6640625,33.8984375,82.5947322324404
19:26:25.04,40.6649106111376,22.5241209392709,44.505615234375,557.736,6.163330078125,0.758056640625,25.5859375,33.8203125,82.3821305696728
19:26:25.21,40.6649581365286,22.5241681293857,44.5111083984375,557.736,6.1358642578125,0.9942626953125,25.53125,33.7578125,82.2212106527214
19:26:25.36,40.6650055781006,22.5242153195006,44.53857421875,556.9158,6.1083984375,1.2249755859375,25.46875,33.703125,82.0632478653554
19:26:25.53,40.6650533549487,22.5242629287106,44.5880126953125,556.9158,6.097412109375,1.4117431640625,25.4140625,33.6328125,81.8902252225554
19:26:25.68,40.6651053227483,22.5243145612341,44.6429443359375,556.9158,6.053466796875,1.494140625,25.375,33.5546875,81.7233991064775
19:26:25.85,40.6651525128632,22.5243614160729,44.725341796875,556.0956,5.987548828125,1.5216064453125,25.3359375,33.4765625,81.5565847620209
19:26:26.00,40.66519953534,22.5244081870926,44.813232421875,556.0956,5.9271240234375,1.5106201171875,25.3046875,33.40625,81.4110436397313
19:26:26.16,40.6652464739977,22.5244548742932,44.8956298828125,556.0956,5.877685546875,1.40625,25.2578125,33.3359375,81.2471826894409
19:26:26.32,40.6652980227022,22.5245061715406,44.9615478515625,556.0956,5.833740234375,1.2359619140625,25.203125,33.2578125,81.0620608543474
19:26:26.48,40.6653447937219,22.5245526911032,45.0164794921875,555.2754,5.8172607421875,1.0382080078125,25.15625,33.1796875,80.8861078616389
19:26:26.64,40.66538997218,22.5246027310652,45.06591796875,555.2754,5.8062744140625,0.823974609375,25.109375,33.1171875,80.7343443051152
19:26:26.80,40.6654365755617,22.5246490829897,45.0823974609375,555.2754,5.811767578125,0.6317138671875,25.0546875,33.0703125,80.5976039354857
19:26:26.96,40.665487621352,22.524699961142,45.076904296875,554.4552,5.7843017578125,0.52734375,25,33.0078125,80.4366760895095
19:26:27.12,40.6655340570956,22.5247461454285,45.06591796875,554.4552,5.745849609375,0.41748046875,24.9609375,32.9453125,80.2940762809633
19:26:27.28,40.6655804090201,22.5247922458959,45.06591796875,554.4552,5.7073974609375,0.3460693359375,24.8984375,32.8984375,80.1481866802326
19:26:27.44,40.6656265933066,22.5248381787253,45.098876953125,554.4552,5.6524658203125,0.3570556640625,24.8671875,32.84375,80.0268429696427
19:26:27.60,40.6656782258301,22.5248881348682,45.164794921875,554.4552,5.592041015625,0.4229736328125,24.8046875,32.8046875,79.8930720200156
19:26:27.76,40.6657243262976,22.5249339000595,45.2471923828125,554.4552,5.55908203125,0.4998779296875,24.7421875,32.7421875,79.7230042974747
19:26:27.92,40.665770342946,22.5249795814318,45.3515625,554.4552,5.5426025390625,0.604248046875,24.6953125,32.671875,79.5591320215749
19:26:28.08,40.6658162757754,22.5250251789851,45.472412109375,553.635,5.5426025390625,0.7305908203125,24.65625,32.6328125,79.4528414581099
19:26:28.24,40.6658667348325,22.525075302766,45.5438232421875,553.635,5.5426025390625,0.8349609375,24.609375,32.578125,79.3131860796179
19:26:28.40,40.6659125000238,22.5251207326812,45.5657958984375,553.635,5.5426025390625,0.966796875,24.5703125,32.5,79.1463554703551
19:26:28.56,40.6659608636051,22.5251667493296,45.5548095703125,553.635,5.537109375,1.087646484375,24.5625,32.4296875,79.0282781248386
19:26:28.72,40.6660064611583,22.5252120954258,45.5657958984375,553.635,5.537109375,1.1810302734375,24.53125,32.3828125,78.9190370477646
19:26:28.89,40.6660565849393,22.5252618839306,45.5987548828125,553.635,5.5096435546875,1.2359619140625,24.5,32.328125,78.7977004903633
19:26:29.04,40.6661020148545,22.5253070623887,45.63720703125,553.635,5.4327392578125,1.263427734375,24.4609375,32.2578125,78.6430109754858
19:26:29.21,40.6661473609507,22.5253522408468,45.6756591796875,553.635,5.3558349609375,1.241455078125,24.4296875,32.1796875,78.4854135878271
19:26:29.36,40.6661926232278,22.5253973354859,45.7415771484375,553.635,5.3228759765625,1.1590576171875,24.40625,32.125,78.3732734605744
19:26:29.53,40.6662616901099,22.5254154403967,45.823974609375,542.9724,5.29541015625,1.0821533203125,24.359375,32.0859375,78.2577690433118
19:26:29.68,40.666306784749,22.5254603673977,45.8953857421875,542.9724,5.2349853515625,1.0052490234375,24.328125,32.015625,78.1122795930396
19:26:29.85,40.666351795569,22.5255053782178,45.9503173828125,542.1522,5.1800537109375,0.94482421875,24.296875,31.953125,77.9788853957466
19:26:30.00,40.66639672257,22.5255502213997,45.9832763671875,542.1522,5.1910400390625,0.823974609375,24.296875,31.921875,77.9305711453352
19:26:30.16,40.6664460919797,22.5255995069904,46.021728515625,542.1522,5.16357421875,0.6976318359375,24.2578125,31.8671875,77.8000776043762
19:26:30.32,40.6664908513427,22.5256442663533,46.0272216796875,542.1522,5.130615234375,0.604248046875,24.2109375,31.8125,77.6603921985291
19:26:30.48,40.6665356107056,22.5256890257163,45.999755859375,541.332,5.09765625,0.5987548828125,24.171875,31.7578125,77.5298984458335
19:26:30.64,40.666581543535,22.5257297617657,45.955810546875,539.6916,5.0701904296875,0.6207275390625,24.1484375,31.703125,77.4177933866241
19:26:30.80,40.6666261352598,22.5257743534906,45.8843994140625,538.8714,5.0811767578125,0.494384765625,24.1171875,31.6640625,77.3206435052068
19:26:30.96,40.6666750855744,22.5258233038051,45.81298828125,538.8714,5.108642578125,0.1812744140625,24.0625,31.6484375,77.2321547250562
19:26:31.12,40.6667195934802,22.5258677278919,45.736083984375,538.8714,5.108642578125,-0.2032470703125,24.0078125,31.6015625,77.0953750152324
19:26:31.28,40.666764017567,22.5259120681597,45.68115234375,538.8714,5.1251220703125,-0.450439453125,23.9609375,31.5703125,76.9919595345866
19:26:31.44,40.6668084416538,22.5259563246084,45.6646728515625,538.0512,5.16357421875,-0.4669189453125,23.921875,31.5546875,76.9219170888711
19:26:31.60,40.6668578110635,22.5260048558278,45.6646728515625,538.0512,5.196533203125,-0.32958984375,23.875,31.5234375,76.8185379443799
19:26:31.76,40.6669020675123,22.5260488608194,45.6427001953125,537.231,5.2130126953125,-0.2471923828125,23.8203125,31.5,76.718123892618
19:26:31.92,40.666946323961,22.5260928658111,45.5987548828125,537.231,5.2020263671875,-0.32958984375,23.765625,31.453125,76.5814216114851
19:26:32.08,40.6669905804098,22.5261367031647,45.5712890625,537.231,5.152587890625,-0.516357421875,23.71875,31.421875,76.4781002128712
19:26:32.24,40.6670391954482,22.5261848152889,45.5548095703125,537.231,5.1470947265625,-0.6317138671875,23.65625,31.4140625,76.3928897826289
19:26:32.40,40.6670834518969,22.5262284850044,45.5657958984375,537.231,5.1361083984375,-0.6317138671875,23.5859375,31.40625,76.298665768599
19:26:32.56,40.6671261157841,22.5262717356248,45.5767822265625,535.5906,5.1141357421875,-0.5657958984375,23.5234375,31.3671875,76.1650966229813
19:26:32.72,40.6671702045947,22.5263151538832,45.582275390625,535.5906,5.0701904296875,-0.4669189453125,23.4921875,31.3203125,76.0558253730682
19:26:32.89,40.6672186519951,22.5263628469123,45.5987548828125,535.5906,5.07568359375,-0.4229736328125,23.46875,31.3125,76.016370128374
19:26:33.04,40.6672626569867,22.5264060975326,45.6207275390625,535.5906,5.07568359375,-0.384521484375,23.40625,31.28125,75.8950013360713
19:26:33.21,40.6673066619784,22.526449264334,45.6427001953125,535.5906,5.0811767578125,-0.2581787109375,23.3359375,31.2578125,75.7767604561345
19:26:33.36,40.66735066697,22.5264923473163,45.6427001953125,535.5906,4.9932861328125,-0.120849609375,23.296875,31.2109375,75.6583971948953
19:26:33.53,40.6673962645233,22.5265402079834,45.6097412109375,534.7704,4.9932861328125,-0.1043701171875,23.265625,31.203125,75.6099329097629
19:26:33.68,40.6674401856959,22.5265832071467,45.560302734375,533.9502,4.976806640625,-0.208740234375,23.21875,31.1640625,75.4946733165313
19:26:33.85,40.6674839392305,22.5266260386719,45.516357421875,533.9502,4.9493408203125,-0.362548828125,23.15625,31.140625,75.3856570057193
19:26:34.00,40.6675277765841,22.5266688701971,45.4669189453125,533.9502,4.8779296875,-0.494384765625,23.1171875,31.1015625,75.2794859118932
19:26:34.16,40.6675758887083,22.5267158088548,45.428466796875,533.9502,4.8504638671875,-0.5218505859375,23.09375,31.09375,75.2401500950337
19:26:34.32,40.6676196422428,22.526758388923,45.406494140625,533.9502,4.8504638671875,-0.450439453125,23.0390625,31.0859375,75.1646618795043
19:26:34.48,40.6676633119584,22.526800885172,45.3790283203125,533.9502,4.833984375,-0.362548828125,22.9765625,31.046875,75.0314223702
19:26:34.64,40.6677067302168,22.5268409506692,45.3515625,533.13,4.7625732421875,-0.318603515625,22.9375,31.0234375,74.9496916878964
19:26:34.80,40.6677546747029,22.5268875540508,45.3240966796875,533.13,4.7625732421875,-0.362548828125,22.8984375,31.015625,74.8923933102983
19:26:34.96,40.6677983444185,22.5269298826619,45.3076171875,532.3098,4.757080078125,-0.3790283203125,22.8671875,30.984375,74.8074995925898
19:26:35.12,40.6678418464959,22.5269720436348,45.3076171875,532.3098,4.757080078125,-0.340576171875,22.8046875,30.9609375,74.6988032017636
19:26:35.28,40.6678854323924,22.5270142046078,45.32958984375,532.3098,4.691162109375,-0.1702880859375,22.765625,30.9375,74.6171496025766
19:26:35.44,40.6679332930595,22.5270604727133,45.340576171875,532.3098,4.713134765625,-0.0164794921875,22.75,30.921875,74.574712586732
19:26:35.60,40.6679749511183,22.5271010411246,45.3131103515625,531.4896,4.7186279296875,0.1043701171875,22.71875,30.8984375,74.5020668360474
19:26:35.76,40.6680183693767,22.5271429506405,45.2691650390625,530.6694,4.7296142578125,0.1593017578125,22.6796875,30.84375,74.3715254876068
19:26:35.92,40.6680617876351,22.5271848601564,45.208740234375,530.6694,4.6307373046875,0.186767578125,22.6484375,30.8046875,74.2744286871292
19:26:36.08,40.6681093968452,22.5272308768048,45.142822265625,530.6694,4.6527099609375,0.2142333984375,22.6171875,30.796875,74.226252345512
19:26:36.24,40.6681527312846,22.5272726186826,45.0823974609375,530.6694,4.6636962890625,0.263671875,22.59375,30.765625,74.1503733765447
19:26:36.40,40.6681959819049,22.5273143605604,45.0494384765625,529.8492,4.669189453125,0.3680419921875,22.5546875,30.7265625,74.0442974341383
19:26:36.56,40.6682383105159,22.527355767162,45.054931640625,529.029,4.603271484375,0.50537109375,22.5390625,30.6875,73.9651676908493
19:26:36.72,40.6682857520879,22.5274015323533,45.0933837890625,529.029,4.581298828125,0.6207275390625,22.53125,30.6640625,73.9194897879111
19:26:36.89,40.6683289188892,22.5274431904121,45.1593017578125,529.029,4.5758056640625,0.7305908203125,22.5234375,30.6328125,73.8615871285268
19:26:37.04,40.6683719180525,22.5274846808328,45.2362060546875,528.2088,4.5758056640625,0.8404541015625,22.4921875,30.578125,73.7400373636978
19:26:37.21,40.6684150010348,22.5275262550725,45.3515625,528.2088,4.493408203125,0.94482421875,22.46875,30.5234375,73.6274862188855
19:26:37.36,40.6684621911497,22.5275719364448,45.450439453125,528.2088,4.537353515625,1.0052490234375,22.4609375,30.484375,73.5573854321576
19:26:37.53,40.6685055255891,22.5276122533991,45.560302734375,527.3886,4.59228515625,1.065673828125,22.4453125,30.4609375,73.5027260244265
19:26:37.68,40.6685483571143,22.5276537438198,45.670166015625,527.3886,4.6417236328125,1.12060546875,22.4296875,30.40625,73.3992051970986
19:26:37.85,40.6685911048205,22.5276952342405,45.8184814453125,526.5684,4.6197509765625,1.1865234375,22.4140625,30.3515625,73.295704709641
19:26:38.00,40.6686380434782,22.5277408317937,45.9283447265625,526.5684,4.6142578125,1.2359619140625,22.4296875,30.2890625,73.2161324049468
19:26:38.16,40.6686806235463,22.5277822383954,46.0382080078125,526.5684,4.6142578125,1.3238525390625,22.4375,30.2578125,73.1763940680129
19:26:38.32,40.6687232036144,22.5278236449971,46.1480712890625,526.5684,4.6197509765625,1.4666748046875,22.4296875,30.1953125,73.0698545724912
19:26:38.48,40.6687656160445,22.5278650515988,46.2908935546875,526.5684,4.6307373046875,1.7083740234375,22.4140625,30.125,72.9421292218695
19:26:38.64,40.668809201941,22.5279098947807,46.494140625,524.928,4.5098876953125,2.0379638671875,22.421875,30.0390625,72.8173382424082
19:26:38.80,40.668851446733,22.5279513852014,46.702880859375,524.928,4.50439453125,2.230224609375,22.4453125,29.984375,72.7595065805883
19:26:38.96,40.6688936077059,22.5279928756221,46.9171142578125,524.928,4.5098876953125,2.318115234375,22.4609375,29.921875,72.6805641505922
19:26:39.12,40.6689356010408,22.5280343660428,47.1148681640625,524.928,4.50439453125,2.3675537109375,22.4765625,29.8359375,72.565381053132
19:26:39.28,40.6689775105567,22.5280759402826,47.3291015625,524.928,4.471435546875,2.493896484375,22.4765625,29.75,72.4321109386766
19:26:39.44,40.6690235272051,22.5281216216549,47.5103759765625,524.928,4.50439453125,2.65869140625,22.515625,29.6640625,72.3448332519141
19:26:39.60,40.6690666940064,22.5281644531801,47.6641845703125,524.928,4.5263671875,2.801513671875,22.5625,29.578125,72.2671190911673
19:26:39.76,40.6691081844271,22.5282061950579,47.79052734375,524.928,4.5703125,2.8399658203125,22.5859375,29.484375,72.1500820407987
19:26:39.92,40.6691495910288,22.5282479369357,47.8729248046875,524.928,4.5098876953125,2.713623046875,22.6015625,29.375,72.0000325835952
19:26:40.08,40.669195020944,22.528293869765,47.92236328125,524.928,4.5263671875,2.471923828125,22.6328125,29.2890625,71.9048970732554
19:26:40.24,40.6692362599076,22.5283356954619,47.977294921875,524.928,4.5263671875,2.197265625,22.65625,29.234375,71.8487449180507
19:26:40.40,40.6692773312331,22.5283775211587,48.0487060546875,524.928,4.5428466796875,1.9775390625,22.65625,29.171875,71.7528165741638
19:26:40.56,40.6693179834635,22.5284214423313,48.1201171875,524.928,4.493408203125,1.73583984375,22.6484375,29.09375,71.6236912484242
19:26:40.72,40.6693629104645,22.5284675427988,48.14208984375,524.928,4.482421875,1.4996337890625,22.671875,29.015625,71.5320190319251
19:26:40.89,40.669403730333,22.5285094523146,48.14208984375,524.928,4.515380859375,1.25244140625,22.703125,28.96875,71.4977185603377
19:26:41.04,40.6694443825634,22.5285513618305,48.1365966796875,524.928,4.537353515625,1.021728515625,22.6953125,28.9140625,71.4047604814762
19:26:41.21,40.6694850347938,22.5285932713463,48.131103515625,524.928,4.50439453125,0.8624267578125,22.671875,28.859375,71.2930876242359
19:26:41.36,40.6695297103377,22.5286392879948,48.1365966796875,524.928,4.493408203125,0.81298828125,22.6640625,28.8125,71.2121201718251
19:26:41.53,40.6695722065867,22.5286817842438,48.1695556640625,525.7482,4.482421875,0.8404541015625,22.6640625,28.7890625,71.1763404035613
19:26:41.68,40.6696126911791,22.5287236099407,48.22998046875,525.7482,4.5098876953125,0.8624267578125,22.625,28.7421875,71.057853613821
19:26:41.85,40.6696530919523,22.5287654356375,48.31787109375,525.7482,4.54833984375,0.8349609375,22.59375,28.6875,70.9368311582337
19:26:42.00,40.6696974322201,22.5288113684669,48.4112548828125,525.7482,4.603271484375,0.7855224609375,22.5859375,28.625,70.8320869034951
19:26:42.16,40.6697376653554,22.5288531103447,48.49365234375,525.7482,4.6636962890625,0.736083984375,22.6015625,28.59375,70.8032575482654
19:26:42.32,40.6697778984906,22.5288948522225,48.5595703125,525.7482,4.7515869140625,0.7525634765625,22.59375,28.5546875,70.7343239401986
19:26:42.48,40.6698179639877,22.5289365102812,48.6090087890625,525.7482,4.8065185546875,0.8294677734375,22.578125,28.4765625,70.5965092771205
19:26:42.64,40.6698590353133,22.5289846224054,48.636474609375,525.7482,4.7845458984375,0.889892578125,22.5546875,28.4140625,70.4730963974969
19:26:42.80,40.6698990169914,22.5290262804642,48.614501953125,525.7482,4.7625732421875,0.845947265625,22.5546875,28.3671875,70.4017980613869
19:26:42.96,40.6699389148505,22.529067938523,48.5430908203125,525.7482,4.735107421875,0.6646728515625,22.5390625,28.328125,70.3235153416376
19:26:43.12,40.6699787288906,22.5291095127627,48.4442138671875,525.7482,4.7625732421875,0.4010009765625,22.4921875,28.265625,70.1718118166689
19:26:43.28,40.6700223986061,22.529155277954,48.394775390625,525.7482,4.779052734375,0.19775390625,22.453125,28.2265625,70.0651859104961
19:26:43.44,40.6700621288271,22.5291967683747,48.394775390625,526.5684,4.8504638671875,0.054931640625,22.4375,28.203125,70.0106589615395
19:26:43.60,40.6700977519156,22.5292401028141,48.438720703125,524.928,4.9383544921875,-0.010986328125,22.4296875,28.1875,69.9774576454578
19:26:43.76,40.6701373983176,22.5292815094158,48.515625,524.928,5.0372314453125,-0.054931640625,22.3984375,28.140625,69.8684055759147
19:26:43.92,40.6701809842141,22.529326939331,48.603515625,524.928,5.0811767578125,-0.0494384765625,22.3515625,28.09375,69.7404529346327
19:26:44.08,40.6702204629781,22.5293681782946,48.69140625,524.928,5.1031494140625,-0.0274658203125,22.3125,28.0625,69.6457066599519
19:26:44.24,40.670259941742,22.5294094172582,48.7518310546875,524.928,5.108642578125,0.02197265625,22.265625,28.046875,69.5652967575593
19:26:44.40,40.6702993366869,22.5294504885837,48.779296875,525.7482,5.152587890625,0.098876953125,22.234375,28,69.4562342640089
19:26:44.56,40.670341916755,22.5294958346799,48.7847900390625,524.928,5.11962890625,0.17578125,22.1875,27.9453125,69.3164118537473
19:26:44.72,40.6703812278809,22.5295368221864,48.7738037109375,524.928,5.11962890625,0.2581787109375,22.1640625,27.921875,69.2524440552709
19:26:44.89,40.6704204551877,22.5295778096929,48.7353515625,524.928,5.1141357421875,0.318603515625,22.15625,27.875,69.1717018659752
19:26:45.04,40.6704595986756,22.5296187133804,48.6859130859375,524.928,5.174560546875,0.3350830078125,22.1328125,27.8203125,69.0602135042717
19:26:45.21,40.6705026816579,22.5296636403814,48.6639404296875,524.928,5.196533203125,0.3240966796875,22.0859375,27.7578125,68.9085097702607
19:26:45.36,40.6705416575076,22.5297043764308,48.6639404296875,524.928,5.2349853515625,0.32958984375,22.0546875,27.7109375,68.7994573375596
19:26:45.53,40.6705803819003,22.5297466212228,48.702392578125,524.928,5.262451171875,0.4010009765625,22.0234375,27.6953125,68.7379103077349
19:26:45.68,40.670619273931,22.5297872734532,48.768310546875,524.928,5.33935546875,0.54931640625,21.9765625,27.6484375,68.6099643246049
19:26:45.85,40.6706620216372,22.5298319489971,48.8507080078125,524.928,5.33935546875,0.714111328125,21.9453125,27.5859375,68.4771511745429
19:26:46.00,40.6707008298488,22.5298725174085,48.955078125,524.928,5.3338623046875,0.87890625,21.9296875,27.53125,68.3751302566641
19:26:46.16,40.6707394704225,22.5299130858198,49.0704345703125,524.928,5.3228759765625,1.0382080078125,21.9375,27.4765625,68.301534031426
19:26:46.32,40.6707781109961,22.5299535704121,49.19677734375,525.7482,5.361328125,1.1810302734375,21.9296875,27.4140625,68.1972138730986
19:26:46.48,40.6708223674448,22.5299979944989,49.3121337890625,525.7482,5.2734375,1.318359375,21.8984375,27.3359375,68.0407967981739
19:26:46.64,40.6708607565614,22.5300384790913,49.41650390625,525.7482,5.2569580078125,1.439208984375,21.8828125,27.265625,67.9152460609811
19:26:46.80,40.6708990618589,22.5300788798645,49.5208740234375,525.7482,5.185546875,1.5435791015625,21.890625,27.1953125,67.8182912207161
19:26:46.96,40.6709372833373,22.5301192806378,49.647216796875,525.7482,5.1690673828125,1.5875244140625,21.8828125,27.1484375,67.7378559195025
19:26:47.12,40.6709792766722,22.5301637885437,49.7845458984375,525.7482,5.1141357421875,1.58203125,21.859375,27.078125,67.6029580818337
19:26:47.28,40.6710173305126,22.530204189317,49.9163818359375,526.5684,5.0592041015625,1.56005859375,21.8515625,26.9921875,67.4635913012028
19:26:47.44,40.671055216715,22.5302446739093,50.0537109375,526.5684,4.998779296875,1.494140625,21.859375,26.921875,67.3670497489437
19:26:47.60,40.6710952822121,22.5302844041303,50.20751953125,526.5684,5.0262451171875,1.4117431640625,21.890625,26.875,67.3347050672667
19:26:47.76,40.6711330845954,22.5303248049036,50.3668212890625,526.5684,4.954833984375,1.3787841796875,21.8984375,26.8125,67.2502117496517
19:26:47.92,40.6711744911971,22.5303693128095,50.55908203125,526.5684,4.844970703125,1.373291015625,21.8984375,26.7578125,67.1679645689361
19:26:48.08,40.6712121259423,22.5304097974018,50.7568359375,527.3886,4.691162109375,1.373291015625,21.890625,26.6796875,67.0409579066722
19:26:48.24,40.6712496768686,22.5304501981751,50.9490966796875,527.3886,4.5098876953125,1.373291015625,21.90625,26.6171875,66.9664251062698
19:26:48.40,40.6712870601567,22.5304906827674,51.1248779296875,527.3886,4.32861328125,1.351318359375,21.921875,26.59375,66.9505793790859
19:26:48.56,40.6713292211297,22.5305353583113,51.240234375,527.3886,4.1253662109375,1.3238525390625,21.9296875,26.5390625,66.8783050255633
19:26:48.72,40.6713665205988,22.5305759267226,51.339111328125,527.3886,3.9056396484375,1.29638671875,21.9296875,26.4765625,66.7847559997864
19:26:48.89,40.6714037362489,22.530616578953,51.405029296875,527.3886,3.702392578125,1.241455078125,21.9609375,26.421875,66.7417613441673
19:26:49.04,40.6714409518989,22.5306571473644,51.448974609375,527.3886,3.5540771484375,1.1480712890625,22.0234375,26.390625,66.7728134214029
19:26:49.21,40.6714817717674,22.5307019905464,51.48193359375,527.3886,3.3837890625,1.0272216796875,22.0625,26.3671875,66.7865338385654
19:26:49.36,40.6715188197794,22.5307427265958,51.5093994140625,527.3886,3.1805419921875,0.8404541015625,22.0703125,26.328125,66.7381031484806
19:26:49.53,40.6715593881908,22.5307834626452,51.52587890625,528.2088,2.9608154296875,0.615234375,22.1015625,26.296875,66.7306342848605
19:26:49.68,40.6715964362028,22.5308243663327,51.5478515625,528.2088,2.70263671875,0.4229736328125,22.1484375,26.2890625,66.7776510697091
19:26:49.85,40.6716371722522,22.5308693771527,51.4984130859375,528.2088,2.548828125,0.3076171875,22.1875,26.3046875,66.8497672220567
19:26:50.00,40.6716741364452,22.5309104484782,51.4105224609375,529.029,2.4114990234375,0.2581787109375,22.1953125,26.3046875,66.8595533285359
19:26:50.16,40.6717111006382,22.5309515198038,51.2841796875,529.029,2.28515625,0.2252197265625,22.2265625,26.2734375,66.8523598787462
19:26:50.32,40.6717480648312,22.5309926749484,51.141357421875,529.029,2.109375,0.1483154296875,22.2890625,26.28125,66.9424134009611
19:26:50.48,40.6717862024906,22.5310400327013,51.0150146484375,529.029,2.0159912109375,0,22.3671875,26.3046875,67.0753552174265
19:26:50.64,40.6718232505026,22.5310813554839,50.9051513671875,529.029,1.8511962890625,-0.15380859375,22.40625,26.328125,67.1592025563276
19:26:50.80,40.6718602985146,22.5311227620856,50.7568359375,529.029,1.69189453125,-0.3076171875,22.4296875,26.34375,67.2118277496149
19:26:50.96,40.6718973465267,22.5311641686873,50.5755615234375,529.029,1.4556884765625,-0.4339599609375,22.4765625,26.3515625,67.2824412896959
19:26:51.12,40.6719381663951,22.5312099338786,50.3887939453125,529.8492,1.351318359375,-0.5328369140625,22.515625,26.3984375,67.4009662543153
19:26:51.28,40.6719753820452,22.5312515081183,50.196533203125,529.8492,1.3128662109375,-0.6207275390625,22.546875,26.453125,67.5211934546817
19:26:51.44,40.6720125976953,22.5312932499961,49.998779296875,529.8492,1.2908935546875,-0.703125,22.5546875,26.4921875,67.5888002210746
19:26:51.60,40.6720483046028,22.5313344889597,49.7900390625,529.8492,1.241455078125,-0.7525634765625,22.6171875,26.5390625,67.7368494275168
19:26:51.76,40.6720894597474,22.5313805894272,49.6197509765625,529.8492,1.2359619140625,-0.7635498046875,22.6875,26.6015625,67.9178573919964
19:26:51.92,40.6721269268545,22.531422498943,49.4439697265625,529.8492,1.219482421875,-0.7305908203125,22.7421875,26.65625,68.067627255196
19:26:52.08,40.6721644777807,22.5314644922779,49.3011474609375,529.8492,1.1700439453125,-0.692138671875,22.7734375,26.7109375,68.1878511272187
19:26:52.24,40.672202028707,22.5315065694318,49.1802978515625,530.6694,1.03271484375,-0.6536865234375,22.8125,26.7578125,68.3063763729542
19:26:52.40,40.6722435191277,22.5315530051754,49.10888671875,530.6694,0.9613037109375,-0.626220703125,22.8671875,26.8203125,68.4676921476972
19:26:52.56,40.6722810700539,22.5315944117771,49.10888671875,529.8492,0.9173583984375,-0.5987548828125,22.8984375,26.890625,68.611030184183
19:26:52.72,40.6723189562562,22.5316367403881,49.1363525390625,529.8492,0.845947265625,-0.538330078125,22.9296875,26.9609375,68.7543943430489
19:26:52.89,40.6723568424585,22.5316792366372,49.141845703125,530.6694,0.758056640625,-0.4559326171875,22.9921875,27,68.8908707076175
19:26:53.04,40.6723986681554,22.5317260914759,49.10888671875,530.6694,0.703125,-0.450439453125,23.0703125,27.0546875,69.0701649560352
19:26:53.21,40.6724368058148,22.5317687553631,49.0704345703125,530.6694,0.6591796875,-0.5438232421875,23.1484375,27.109375,69.2494905758363
19:26:53.36,40.6724749434742,22.5318115030692,49.0264892578125,530.6694,0.6317138671875,-0.714111328125,23.1875,27.1796875,69.4026459859249
19:26:53.53,40.6725154280666,22.5318541669564,48.966064453125,531.4896,0.54931640625,-0.889892578125,23.2265625,27.234375,69.5327175407159
19:26:53.68,40.6725576728585,22.5319013570712,48.922119140625,531.4896,0.516357421875,-0.94482421875,23.265625,27.3125,69.69744417199
19:26:53.85,40.6725961457941,22.5319444400535,48.878173828125,531.4896,0.4888916015625,-0.911865234375,23.3125,27.390625,69.8720300914533
19:26:54.00,40.6726347025487,22.5319875230358,48.8507080078125,532.3098,0.46142578125,-0.845947265625,23.3515625,27.453125,70.0136740897333
19:26:54.16,40.6726733431223,22.5320307736562,48.8507080078125,532.3098,0.4119873046875,-0.7745361328125,23.3828125,27.5234375,70.1570610520052
19:26:54.32,40.6727160070095,22.5320783828662,48.8397216796875,532.3098,0.41748046875,-0.7415771484375,23.453125,27.5859375,70.3380298120063
19:26:54.48,40.6727548990402,22.532120040925,48.8287353515625,532.3098,0.4339599609375,-0.72509765625,23.5234375,27.65625,70.5305674697856
19:26:54.64,40.6727937910709,22.5321635430025,48.834228515625,532.3098,0.4449462890625,-0.72509765625,23.578125,27.71875,70.6918807500813
19:26:54.80,40.6728328507397,22.5322070450799,48.8397216796875,532.3098,0.41748046875,-0.7196044921875,23.609375,27.78125,70.8237017766931
19:26:54.96,40.672875933722,22.5322550733851,48.834228515625,532.3098,0.4998779296875,-0.703125,23.65625,27.84375,70.9751867009394
19:26:55.12,40.6729150772098,22.5322989107387,48.80126953125,533.13,0.54931640625,-0.6976318359375,23.703125,27.90625,71.1266728219612
19:26:55.28,40.6729543883357,22.5323427480923,48.746337890625,533.13,0.59326171875,-0.7086181640625,23.75,27.96875,71.2781601321281
19:26:55.44,40.6729937832806,22.5323866692649,48.6968994140625,533.13,0.5987548828125,-0.736083984375,23.7890625,28.0078125,71.3851199136662
19:26:55.60,40.6730363633487,22.5324352004843,48.6529541015625,533.13,0.626220703125,-0.7745361328125,23.8359375,28.0703125,71.5366072841328
19:26:55.76,40.6730758421126,22.532479373114,48.603515625,533.13,0.714111328125,-0.780029296875,23.8984375,28.1328125,71.7077433522286
19:26:55.92,40.6731154885146,22.5325235457437,48.53759765625,533.13,0.8184814453125,-0.736083984375,23.9296875,28.1875,71.8280152467921
19:26:56.08,40.6731551349166,22.5325677183734,48.4716796875,533.9502,0.9063720703125,-0.703125,23.9609375,28.21875,71.9135821116352
19:26:56.24,40.6731988884512,22.5326165010499,48.416748046875,533.9502,1.0931396484375,-0.7305908203125,23.9921875,28.265625,72.0222877807492
19:26:56.40,40.6732387024913,22.5326608413176,48.3673095703125,533.9502,1.34033203125,-0.791015625,24.015625,28.328125,72.1443276070696
19:26:56.56,40.6732786003504,22.532706774147,48.306884765625,534.7704,1.58203125,-0.8294677734375,24.0390625,28.3671875,72.231653052105
19:26:56.72,40.6733184982095,22.5327511982338,48.251953125,535.5906,1.768798828125,-0.791015625,24.0546875,28.4140625,72.3207552999652
19:26:56.89,40.6733584798876,22.5327957061397,48.2135009765625,535.5906,1.922607421875,-0.692138671875,24.0625,28.4453125,72.3768992689303
19:26:57.04,40.6734025686983,22.5328446564542,48.1915283203125,536.4108,2.032470703125,-0.6317138671875,24.1015625,28.4921875,72.4954287858591
19:26:57.21,40.6734427180145,22.5328891643601,48.1805419921875,536.4108,2.1478271484375,-0.5767822265625,24.125,28.5390625,72.5943593438975
19:26:57.36,40.6734828673307,22.5329337560849,48.1640625,537.231,2.252197265625,-0.5438232421875,24.125,28.5625,72.6291361072695
19:26:57.53,40.6735241062943,22.5329776772575,48.1256103515625,537.231,2.2686767578125,-0.5218505859375,24.140625,28.5625,72.6487256947129
19:26:57.68,40.673568278924,22.5330267952101,48.0706787109375,538.0512,2.3675537109375,-0.560302734375,24.1484375,28.5859375,72.6932978463676
19:26:57.85,40.6736085958783,22.533071386935,48.0157470703125,538.8714,2.5103759765625,-0.63720703125,24.140625,28.640625,72.7647027399726
19:26:58.00,40.6736488290135,22.5331159786599,47.96630859375,538.8714,2.669677734375,-0.703125,24.1171875,28.65625,72.7585885485835
19:26:58.16,40.6736892297868,22.5331605703848,47.9388427734375,539.6916,2.801513671875,-0.714111328125,24.109375,28.6640625,72.7604309321452
19:26:58.32,40.6737335700545,22.5332096045183,47.92236328125,540.5118,2.96630859375,-0.7086181640625,24.1328125,28.703125,72.8478114350439
19:26:58.48,40.6737740546469,22.5332545315193,47.911376953125,541.332,3.1475830078125,-0.6756591796875,24.1328125,28.7265625,72.8826663572848
19:26:58.64,40.6738144554202,22.5332990394252,47.900390625,541.332,3.2574462890625,-0.6536865234375,24.1171875,28.734375,72.874770024233
19:26:58.80,40.6738548561934,22.533343547331,47.9058837890625,542.1522,3.284912109375,-0.6097412109375,24.0859375,28.734375,72.8357577692971
19:26:58.96,40.6738993640993,22.5333924976455,47.8839111328125,542.9724,3.3563232421875,-0.5548095703125,24.078125,28.7421875,72.8376424718875
19:26:59.12,40.6739398486916,22.5334370055514,47.867431640625,543.7926,3.416748046875,-0.4779052734375,24.0546875,28.765625,72.8433342306628
19:26:59.28,40.6739803332839,22.5334814296382,47.8509521484375,544.6128,3.4991455078125,-0.3955078125,24.015625,28.765625,72.794679059687
19:26:59.44,40.6740207340572,22.533525853725,47.8564453125,545.433,3.504638671875,-0.2911376953125,24,28.7578125,72.7635774381216
19:26:59.60,40.6740653257821,22.5335747202205,47.8729248046875,546.2532,3.5430908203125,-0.2197265625,24.015625,28.765625,72.794679059687
19:26:59.76,40.6741058103744,22.5336190604883,47.900390625,547.0734,3.614501953125,-0.1318359375,24.0234375,28.765625,72.8044063678709
19:26:59.92,40.6741462111477,22.5336634007561,47.933349609375,547.8936,3.6639404296875,0,23.9921875,28.7578125,72.7538541686045
19:27:00.08,40.67418669574,22.5337077410238,47.98828125,548.7138,3.6309814453125,0.208740234375,23.96875,28.7421875,72.7013818012861
19:27:00.24,40.6742312036459,22.5337564398813,48.0487060546875,549.534,3.680419921875,0.4229736328125,23.96875,28.75,72.7130380326066
19:27:00.40,40.6742716044192,22.53380069633,48.131103515625,550.3542,3.702392578125,0.6591796875,23.9609375,28.7265625,72.6683512058191
19:27:00.56,40.6743113346402,22.5338473835307,48.240966796875,551.1744,3.6968994140625,0.9063720703125,23.9453125,28.703125,72.6139456255056
19:27:00.72,40.6743516515944,22.5338917237985,48.36181640625,551.9946,3.62548828125,1.142578125,23.9609375,28.671875,72.586801319
19:27:00.89,40.6743959918622,22.5339405064749,48.4716796875,552.8148,3.5870361328125,1.2799072265625,24,28.65625,72.6122121322989
19:27:01.04,40.6744363088165,22.5339848467427,48.5760498046875,553.635,3.515625,1.329345703125,24.0234375,28.625,72.5949431384382
19:27:01.21,40.6744765419517,22.5340291870105,48.66943359375,553.635,3.4332275390625,1.318359375,24.03125,28.578125,72.5349829064697
19:27:01.36,40.6745167750869,22.5340736110973,48.790283203125,554.4552,3.262939453125,1.3018798828125,24.0390625,28.546875,72.4983056280827
19:27:01.53,40.6745596904312,22.5341233157831,48.8946533203125,555.2754,3.22998046875,1.2469482421875,24.046875,28.5546875,72.5196901248129
19:27:01.68,40.6745998397474,22.5341678236889,48.97705078125,555.2754,3.197021484375,1.16455078125,24.046875,28.5234375,72.4732664427764
19:27:01.85,40.6746399052445,22.5342123315948,49.04296875,556.0956,3.1365966796875,1.109619140625,24.0703125,28.484375,72.4446450841853
19:27:02.00,40.6746799707417,22.5342568395006,49.0924072265625,556.0956,3.0267333984375,1.0821533203125,24.1171875,28.46875,72.4802897266811
19:27:02.16,40.6747240595524,22.5343058736342,49.119873046875,556.9158,2.9278564453125,1.0546875,24.15625,28.4765625,72.54093496157
19:27:02.32,40.6747641250495,22.5343505491781,49.119873046875,556.9158,2.79052734375,1.0107421875,24.1796875,28.453125,72.5356957817045
19:27:02.48,40.6748029332612,22.5343937997985,49.1253662109375,556.0956,2.5982666015625,0.94482421875,24.1796875,28.4296875,72.5010076271687
19:27:02.64,40.6748429149394,22.5344385591614,49.130859375,556.0956,2.4334716796875,0.823974609375,24.2109375,28.421875,72.5287985388546
19:27:02.80,40.674886919931,22.534487760933,49.1363525390625,556.9158,2.3895263671875,0.68115234375,24.234375,28.4296875,72.5698801666784
19:27:02.96,40.6749269016091,22.534532520296,49.1473388671875,556.9158,2.3785400390625,0.538330078125,24.234375,28.4453125,72.592982331656
19:27:03.12,40.6749668832873,22.5345773634779,49.1473388671875,556.9158,2.406005859375,0.41748046875,24.2265625,28.4296875,72.5600357119273
19:27:03.28,40.6750068649654,22.5346222066599,49.1693115234375,556.9158,2.3785400390625,0.37353515625,24.265625,28.421875,72.5977335480373
19:27:03.44,40.6750508699571,22.5346715760696,49.2132568359375,557.736,2.39501953125,0.3570556640625,24.3125,28.4375,72.6799604448266
19:27:03.60,40.6750909354542,22.5347170898038,49.273681640625,557.736,2.4114990234375,0.3955078125,24.3359375,28.453125,72.7326192726557
19:27:03.76,40.6751309171324,22.5347620168048,49.3450927734375,557.736,2.4114990234375,0.4339599609375,24.3515625,28.453125,72.7523519555744
19:27:03.92,40.6751709826295,22.5348070276248,49.449462890625,558.5562,2.274169921875,0.472412109375,24.359375,28.4453125,72.7506929951329
19:27:04.08,40.6752149876212,22.5348565646726,49.54833984375,558.5562,2.2027587890625,0.472412109375,24.375,28.4453125,72.7704397679123
19:27:04.24,40.6752550531183,22.5349015754926,49.63623046875,558.5562,2.1533203125,0.4229736328125,24.40625,28.453125,72.8214738697196
19:27:04.40,40.6752950347965,22.5349467539507,49.7076416015625,558.5562,2.1148681640625,0.3570556640625,24.421875,28.4765625,72.8757940516658
19:27:04.56,40.6753367766743,22.5349915133137,49.735107421875,558.5562,2.1148681640625,0.2691650390625,24.421875,28.453125,72.841239398947
19:27:04.72,40.6753808654849,22.5350412179995,49.76806640625,558.5562,2.054443359375,0.1812744140625,24.4453125,28.4453125,72.859390498665
19:27:04.89,40.6754208471631,22.5350864802766,49.801025390625,558.5562,2.076416015625,0.1043701171875,24.5,28.46875,72.963180029091
19:27:05.04,40.6754609126602,22.5351317425537,49.844970703125,558.5562,2.098388671875,0.0714111328125,24.515625,28.4921875,73.01748942372
19:27:05.21,40.6755009781574,22.5351770886499,49.8614501953125,558.5562,2.1533203125,0.087890625,24.546875,28.4921875,73.0570982337917
19:27:05.36,40.6755411274736,22.535222434746,49.8614501953125,559.3764,2.1148681640625,0.098876953125,24.5546875,28.484375,73.0555092492563
19:27:05.53,40.6755807738756,22.5352755760122,49.8504638671875,558.5562,2.1148681640625,0.0933837890625,24.5703125,28.484375,73.0753312494468
19:27:05.68,40.6756208393727,22.5353210059273,49.833984375,559.3764,2.1368408203125,0.0384521484375,24.5859375,28.515625,73.1411264555054
19:27:05.85,40.6756609886889,22.5353664358425,49.8175048828125,559.3764,2.1697998046875,-0.010986328125,24.5859375,28.546875,73.187113916789
19:27:06.00,40.6757011380051,22.5354119495768,49.8175048828125,559.3764,2.1533203125,-0.0439453125,24.5859375,28.53125,73.1641175031343
19:27:06.16,40.6757453106349,22.5354619895387,49.8284912109375,559.3764,2.17529296875,-0.0494384765625,24.609375,28.5546875,73.2283294795201
19:27:06.32,40.6757854599511,22.5355075032729,49.8394775390625,559.3764,2.208251953125,-0.0439453125,24.6640625,28.578125,73.3321904656091
19:27:06.48,40.6758216697728,22.5355544419307,49.8504638671875,559.3764,2.3016357421875,-0.0164794921875,24.671875,28.5859375,73.3535956204783
19:27:06.64,40.6758618190889,22.5356000394839,49.8779296875,559.3764,2.2467041015625,0.032958984375,24.6640625,28.5859375,73.3436804968309
19:27:06.80,40.6759060755377,22.5356501632649,49.888916015625,559.3764,2.2576904296875,0.06591796875,24.671875,28.5859375,73.3535956204783
19:27:06.96,40.675946392492,22.5356957608182,49.89990234375,559.3764,2.28515625,0.098876953125,24.703125,28.625,73.4507055450463
19:27:07.12,40.6759866256272,22.5357413583714,49.9053955078125,559.3764,2.318115234375,0.120849609375,24.6953125,28.625,73.4407909870888
19:27:07.28,40.6760268587624,22.5357870397437,49.910888671875,559.3764,2.3455810546875,0.1702880859375,24.6796875,28.625,73.4209672659377
19:27:07.44,40.6760711990302,22.5358372473437,49.910888671875,559.3764,2.362060546875,0.2197265625,24.703125,28.625,73.4507055450463
19:27:07.60,40.6761106777941,22.5358848565537,49.9053955078125,558.5562,2.4114990234375,0.263671875,24.7578125,28.6328125,73.5316371876765
19:27:07.76,40.6761509947484,22.535930537926,49.9273681640625,558.5562,2.471923828125,0.296630859375,24.7734375,28.625,73.540017357164
19:27:07.92,40.6761912278836,22.5359763031173,49.9822998046875,558.5562,2.4444580078125,0.37353515625,24.765625,28.609375,73.5071348656216
19:27:08.08,40.6762355681514,22.5360266783554,50.020751953125,558.5562,2.449951171875,0.472412109375,24.7734375,28.609375,73.5170686732911
19:27:08.24,40.6762758012866,22.5360724435467,50.0262451171875,558.5562,2.449951171875,0.5548095703125,24.796875,28.6171875,73.5583498570582
19:27:08.40,40.6763160344218,22.5361182925571,50.020751953125,558.5562,2.4609375,0.626220703125,24.8203125,28.6171875,73.5881734656935
19:27:08.56,40.6763601232325,22.5361639739294,50.0042724609375,559.3764,2.4444580078125,0.670166015625,24.8125,28.59375,73.5438367438377
19:27:08.72,40.6764043796813,22.5362144329864,49.998779296875,560.1966,2.4334716796875,0.6591796875,24.828125,28.578125,73.5408175812941
19:27:08.89,40.6764445289975,22.5362603658158,49.998779296875,560.1966,2.4224853515625,0.6207275390625,24.875,28.5859375,73.6120183336969
19:27:09.04,40.6764847621327,22.5363062986452,49.976806640625,560.1966,2.4444580078125,0.560302734375,24.9140625,28.5859375,73.661853400875
19:27:09.21,40.6765249952679,22.5363523152936,49.954833984375,560.1966,2.449951171875,0.4449462890625,24.9140625,28.5703125,73.6389739637537
19:27:09.36,40.6765692517167,22.5364029419888,49.9493408203125,560.1966,2.4554443359375,0.318603515625,24.9140625,28.5625,73.6275362714912
19:27:09.53,40.6766148492699,22.5364489586372,49.954833984375,561.837,2.4554443359375,0.2362060546875,24.9375,28.59375,73.7032128695419
19:27:09.68,40.6766549985861,22.5364950591046,49.9603271484375,561.837,2.4224853515625,0.19775390625,24.953125,28.59375,73.7231668957518
19:27:09.85,40.6766952317213,22.5365411595721,49.9603271484375,561.837,2.3675537109375,0.186767578125,24.953125,28.59375,73.7231668957518
19:27:10.00,40.6767394881701,22.5365918700863,49.976806640625,561.837,2.2467041015625,0.164794921875,24.9453125,28.5859375,73.7017534451857
19:27:10.16,40.6767797213053,22.5366380543728,49.976806640625,561.837,2.1258544921875,0.1263427734375,24.984375,28.609375,73.7859559039387
19:27:10.32,40.6768200382596,22.5366842386592,49.9603271484375,561.837,2.0159912109375,0.10986328125,25.0234375,28.625,73.8587415574822
19:27:10.48,40.676868653298,22.5367310096789,49.921875,565.1178,1.9940185546875,0.0714111328125,25.0234375,28.6328125,73.8701683951538
19:27:10.64,40.6769129935657,22.5367818040122,49.888916015625,565.1178,1.9390869140625,0.054931640625,25.0234375,28.640625,73.8815965830322
19:27:10.80,40.67695331052,22.5368280721177,49.866943359375,565.1178,1.900634765625,0.06591796875,25.046875,28.65625,73.9344120345154
19:27:10.96,40.6769937112933,22.5368744240422,49.85595703125,565.1178,1.8841552734375,0.1373291015625,25.078125,28.6875,74.0200706124703
19:27:11.12,40.6770340282475,22.5369207759668,49.8724365234375,565.1178,1.86767578125,0.2691650390625,25.078125,28.703125,74.0429256119425
19:27:11.28,40.6770784523344,22.536971737938,49.910888671875,565.1178,1.7523193359375,0.4559326171875,25.0859375,28.703125,74.052911958817
19:27:11.44,40.6771188531077,22.5370182575006,49.94384765625,564.2976,1.6534423828125,0.6427001953125,25.15625,28.7109375,74.1542824628566
19:27:11.60,40.6771634448325,22.5370635197778,49.976806640625,565.938,1.549072265625,0.7965087890625,25.21875,28.7265625,74.2571585324553
19:27:11.76,40.6772038456058,22.5371101231594,49.9932861328125,565.938,1.461181640625,0.90087890625,25.2578125,28.7265625,74.3072428565841
19:27:11.92,40.6772483535117,22.5371615042259,49.9713134765625,565.938,1.285400390625,0.9393310546875,25.28125,28.7109375,74.3145313768667
19:27:12.08,40.6772887542849,22.5372082752456,49.8944091796875,565.938,1.1151123046875,0.889892578125,25.34375,28.7109375,74.3948236091723
19:27:12.24,40.6773291550582,22.5372551300843,49.7900390625,565.1178,0.9722900390625,0.791015625,25.390625,28.734375,74.4892280023985
19:27:12.40,40.6773695558315,22.537302068742,49.658203125,565.1178,0.8843994140625,0.703125,25.421875,28.75,74.5521750889809
19:27:12.56,40.6774122197187,22.537354707094,49.559326171875,565.1178,0.758056640625,0.6756591796875,25.4375,28.765625,74.5950201548219
19:27:12.72,40.677452704311,22.5374018133898,49.471435546875,565.1178,0.703125,0.670166015625,25.5078125,28.7890625,74.7196442376606
19:27:12.89,40.6774932727223,22.5374489196856,49.41650390625,564.2976,0.68115234375,0.63720703125,25.578125,28.828125,74.8670395958824
19:27:13.04,40.6775338411337,22.5374961936195,49.37255859375,564.2976,0.7196044921875,0.560302734375,25.625,28.859375,74.972888481953
19:27:13.21,40.6775785166776,22.5375483290572,49.361572265625,564.2976,0.670166015625,0.4833984375,25.65625,28.890625,75.058589384243
19:27:13.36,40.677619168908,22.5375957706292,49.3505859375,563.4774,0.59326171875,0.4229736328125,25.6875,28.9140625,75.1329441445196
19:27:13.53,40.6776550434536,22.5376430445631,49.3341064453125,562.6572,0.5328369140625,0.3790283203125,25.734375,28.9453125,75.2388107912403
19:27:13.68,40.677695863322,22.5376905699541,49.273681640625,561.837,0.5218505859375,0.32958984375,25.7890625,28.9921875,75.3774529986197
19:27:13.85,40.6777366831905,22.5377382629831,49.24072265625,561.837,0.4669189453125,0.296630859375,25.8125,29.046875,75.4870990329138
19:27:14.00,40.6777816101915,22.537790817516,49.21875,561.0168,0.4119873046875,0.274658203125,25.84375,29.0625,75.5501171191341
19:27:14.16,40.6778225138789,22.5378386781831,49.1912841796875,561.0168,0.3900146484375,0.263671875,25.8984375,29.09375,75.666086745686
19:27:14.32,40.6778635013855,22.5378865388502,49.1583251953125,560.1966,0.3515625,0.230712890625,25.96875,29.140625,75.8249312980765
19:27:14.48,40.6778989568359,22.5379351538886,49.119873046875,558.5562,0.4119873046875,0.120849609375,26.015625,29.1875,75.9534962901386
19:27:14.64,40.677944135294,22.5379880436976,49.1143798828125,557.736,0.3900146484375,0.032958984375,26.0390625,29.21875,76.0291086101938
19:27:14.80,40.6779852904385,22.5380361558219,49.10888671875,557.736,0.3570556640625,0.0384521484375,26.0703125,29.25,76.1148185894228
19:27:14.96,40.6780265294021,22.5380843517651,49.1143798828125,556.9158,0.3460693359375,0.1812744140625,26.1328125,29.2890625,76.2522607236837
19:27:15.12,40.6780677683658,22.5381327153464,49.1473388671875,556.0956,0.3955078125,0.4833984375,26.1796875,29.328125,76.3695075403271
19:27:15.28,40.6781131144619,22.5381859404315,49.1693115234375,556.0956,0.384521484375,0.8184814453125,26.2109375,29.3671875,76.4665434992292
19:27:15.44,40.6781544372446,22.5382344716509,49.130859375,555.2754,0.318603515625,1.087646484375,26.2578125,29.3515625,76.5045834088223
19:27:15.60,40.6781940836466,22.5382846792509,49.0869140625,554.4552,0.2911376953125,1.2689208984375,26.34375,29.375,76.6498806046957
19:27:15.76,40.6782354064292,22.5383333781083,49.0374755859375,553.635,0.3900146484375,1.3677978515625,26.421875,29.3984375,76.7851471764557
19:27:15.92,40.6782809201634,22.5383871061077,49.02099609375,553.635,0.41748046875,1.4117431640625,26.4765625,29.3984375,76.856201346823
19:27:16.08,40.6783222429461,22.5384360564222,48.9990234375,552.8148,0.450439453125,1.4337158203125,26.5234375,29.3984375,76.9171694641891
19:27:16.24,40.6783636495477,22.5384851743748,48.9825439453125,551.9946,0.450439453125,1.4556884765625,26.59375,29.40625,77.0199885826771
19:27:16.40,40.6784050561494,22.5385343761464,48.93310546875,551.9946,0.5328369140625,1.51611328125,26.6640625,29.4296875,77.1454066014537
19:27:16.56,40.678449061141,22.538588858517,48.8616943359375,549.534,0.5438232421875,1.5765380859375,26.7109375,29.421875,77.1953386280914
19:27:16.72,40.6784904677427,22.5386382279267,48.7957763671875,549.534,0.5767822265625,1.5875244140625,26.7421875,29.421875,77.2361568435366
19:27:16.89,40.6785318743444,22.5386877649744,48.7353515625,548.7138,0.6097412109375,1.549072265625,26.8203125,29.4375,77.3607510179912
19:27:17.04,40.6785732809461,22.5387373858412,48.6859130859375,547.8936,0.76904296875,1.439208984375,26.8984375,29.4609375,77.4966611166572
19:27:17.21,40.6786188784993,22.5387920358499,48.658447265625,547.0734,0.867919921875,1.3018798828125,26.9453125,29.46875,77.5692875705413
19:27:17.36,40.67866036892,22.5388418243547,48.6309814453125,547.0734,0.94482421875,1.1810302734375,26.96875,29.4609375,77.5888232371798
19:27:17.53,40.6786992609507,22.5388943788876,48.6199951171875,546.2532,1.043701171875,1.1260986328125,27.0078125,29.484375,77.6736483576653
19:27:17.68,40.6787407513714,22.5389442512115,48.5870361328125,545.433,1.1920166015625,1.0821533203125,27.0546875,29.5078125,77.7687372348235
19:27:17.85,40.6787864327437,22.5389993203153,48.5595703125,544.6128,1.307373046875,1.07666015625,27.078125,29.515625,77.8106962356253
19:27:18.00,40.6788279231644,22.5390493602773,48.5430908203125,544.6128,1.4227294921875,1.0821533203125,27.09375,29.5078125,77.8200392549894
19:27:18.16,40.6788694974042,22.5390994840583,48.5430908203125,543.7926,1.56005859375,1.0931396484375,27.140625,29.5234375,77.9039976576266
19:27:18.32,40.6789109878249,22.5391496916583,48.5595703125,542.9724,1.7742919921875,1.0931396484375,27.203125,29.546875,78.0197069814447
19:27:18.48,40.6789533164359,22.5392046769431,48.5980224609375,541.332,1.8841552734375,1.07666015625,27.234375,29.5390625,78.0496791141646
19:27:18.64,40.6789948906756,22.5392550521811,48.6419677734375,541.332,1.9720458984375,1.12060546875,27.234375,29.515625,78.0162115245909
19:27:18.80,40.6790363810963,22.5393053436002,48.6749267578125,540.5118,2.0050048828125,1.23046875,27.2734375,29.5,78.0453999828372
19:27:18.96,40.679077955336,22.5393558026573,48.6859130859375,540.5118,2.0654296875,1.318359375,27.28125,29.5234375,78.0891364050543
19:27:19.12,40.6791236367083,22.5394112908563,48.680419921875,539.6916,2.1533203125,1.3458251953125,27.3125,29.5078125,78.1080702401512
19:27:19.28,40.67916504331,22.5394617499133,48.66943359375,539.6916,2.230224609375,1.3677978515625,27.3125,29.46875,78.0523984539805
19:27:19.44,40.6792065337307,22.5395122927895,48.6529541015625,539.6916,2.3291015625,1.3623046875,27.3359375,29.453125,78.0611047208401
19:27:19.60,40.679244419933,22.5395630033037,48.62548828125,538.0512,2.4884033203125,1.351318359375,27.390625,29.4375,78.111188574139
19:27:19.76,40.6792900174863,22.5396186591407,48.614501953125,538.0512,2.5927734375,1.329345703125,27.40625,29.4296875,78.1207610081271
19:27:19.92,40.6793313402689,22.5396692858359,48.5870361328125,538.0512,2.669677734375,1.2908935546875,27.40625,29.390625,78.0652457952474
19:27:20.08,40.6793727468706,22.539719912531,48.5650634765625,537.231,2.7301025390625,1.2030029296875,27.3984375,29.375,78.0326969585988
19:27:20.24,40.6794140696532,22.5397705392262,48.548583984375,537.231,2.779541015625,1.0986328125,27.40625,29.375,78.0430493118925
19:27:20.40,40.6794594995684,22.5398262788823,48.5650634765625,537.231,2.87841796875,1.0272216796875,27.3984375,29.3828125,78.043795985917
19:27:20.56,40.6794958770282,22.5398806774339,48.5870361328125,536.4108,2.98828125,0.98876953125,27.375,29.3515625,77.9683472758729
19:27:20.72,40.6795371998108,22.539931304129,48.6309814453125,536.4108,3.09814453125,1.0107421875,27.3828125,29.3203125,77.9343216537317
19:27:20.89,40.6795784387744,22.5399819308242,48.6859130859375,536.4108,3.22998046875,1.0986328125,27.4140625,29.3125,77.9646840779132
19:27:21.04,40.6796237848706,22.5400376704803,48.71337890625,536.4108,3.306884765625,1.1920166015625,27.4140625,29.2890625,77.9314371179888
19:27:21.21,40.6796649400152,22.5400882971755,48.7353515625,536.4108,3.350830078125,1.3018798828125,27.3984375,29.2421875,77.8442240735571
19:27:21.36,40.6797060951598,22.5401388400516,48.779296875,536.4108,3.3453369140625,1.3897705078125,27.390625,29.203125,77.7784835948839
19:27:21.53,40.6797473341234,22.5401896343848,48.8232421875,536.4108,3.3453369140625,1.4501953125,27.390625,29.171875,77.7342168261935
19:27:21.68,40.6797925125815,22.5402452902219,48.834228515625,536.4108,3.3892822265625,1.47216796875,27.390625,29.140625,77.6899722701796
19:27:21.85,40.679833500088,22.540295916917,48.84521484375,536.4108,3.438720703125,1.483154296875,27.3671875,29.1015625,77.60349995593
19:27:22.00,40.6798744037754,22.5403465436122,48.8507080078125,536.4108,3.4661865234375,1.47216796875,27.359375,29.0625,77.5378346085881
19:27:22.16,40.6799152236439,22.5403971703073,48.8616943359375,536.4108,3.5321044921875,1.4556884765625,27.3828125,29.0390625,77.5359185965133
19:27:22.32,40.6799601506449,22.5404527423254,48.8726806640625,537.231,3.5870361328125,1.417236328125,27.40625,29.0078125,77.5230236433605
19:27:22.48,40.680005329103,22.5405004353544,48.93310546875,536.4108,3.6090087890625,1.3787841796875,27.390625,28.9765625,77.4580542862078
19:27:22.64,40.6800460651524,22.5405510620496,49.02099609375,537.231,3.614501953125,1.373291015625,27.359375,28.9609375,77.3942981898487
19:27:22.80,40.6800868012018,22.5406016049257,49.097900390625,537.231,3.570556640625,1.4007568359375,27.3515625,28.90625,77.3066758174276
19:27:22.96,40.6801274534322,22.5406521478018,49.185791015625,537.231,3.4881591796875,1.4227294921875,27.3671875,28.8828125,77.2944846125083
19:27:23.12,40.6801721289761,22.5407078036389,49.24072265625,538.0512,3.44970703125,1.395263671875,27.3671875,28.859375,77.2614411441813
